[
    {
        "city": "Barcelona",
        "country": "Spain",
        "name": "La Clandestina",
        "address": "Baixada de Viladecols, 2",
        "coordinates": ["41.393996", "2.165491"],
        "description": {
            "Internet": "Free wifi",
            "Power Outlets": "Some inside",
            "Seating": "Good size tables, comfy chairs, bar-style seating",
            "Service": "Very friendly",
            "Provision": "Over 20 types of tea are served, along with the usual coffee and stronger drinks"
        }
    },
    {
        "city": "Barcelona",
        "country": "Spain",
        "name": "Café Milans",
        "address": "Milans, 7",
        "coordinates": ["41.380657", "2.179155"],
        "description": {
            "Internet": "Free WIFI for customers",
            "Power Outlets": "Some inside",
            "Seating": "Good size tables, comfy chairs, bar-style seating",
            "Service": "Very friendly",
            "Provision": "Coffee with an assortment of tapas"
        }
    },
    {
        "city": "Barcelona",
        "country": "Spain",
        "name": "Candela",
        "address": "Hospital, 48",
        "coordinates": ["41.384698", "2.16686"],
        "description": {
            "Internet": "Free wifi",
            "Power Outlets": "A handful",
            "Seating": "Good size tables, comfy chairs, bar-style seating",
            "Service": "Very friendly",
            "Hours": "Mon - Sat: 9am - 2.30pm; Closed Sun"
        },
        "link": {
            "homepage":"http://www.candelaraval.com/"
        }
    },
    {
        "city": "Barcelona",
        "country": "Spain",
        "name": "Carmelitas",
        "address": "Carme, 42",
        "coordinates": ["41.39377", "2.165792"],
        "description": {
            "Internet": "Free WIFI - you will need to ask the staff for the key.",
            "Power Outlets": "The only weak spot",
            "Seating": "Bar-style seating",
            "Service": "Very friendly",
            "Provision": "The food is, unfortunately, rather unremarkable",
            "Hours": " Daily: 1.30pm - 12am; Kitchen: 1.30pm - 4pm and 9pm - 12am"
        },
        "link": {
            "homepage":"http://www.carmelitas.biz/"
        }
    },
    {
        "city": "Barcelona",
        "country": "Spain",
        "name": "Laie",
        "address": "Pau Claris 85 (between Gran Via y Casp)",
        "coordinates": ["37.399875", "-2.364469"],
        "description": {
            "Internet": "FREE WIFI - ask for the key at the bar",
            "Power Outlets": "Some inside",
            "Seating": "Bookstore café",
            "Service": "Friendly",
            "Provision": "Coffee, Beer and Sandwiches",
            "Hours": "Mon - Fri 9am - 9.30pm; Sat 10am - 9.30pm"
        },
        "link": {
            "homepage":"http://www.laie.es/"
        }
    },
    {
        "city": "Barcelona",
        "country": "Spain",
        "name": "Cafè Camèlia",
        "address": "C/ Verdi, 79",
        "coordinates": ["37.399875", "-2.364469"],
        "description": {
            "Internet": "Free WIFI",
            "Power Outlets": "The only weak spot",
            "Seating": "Bookcoffee-style",
            "Service": "Friendly",
            "Provision": "The lunch menu consistently includes vegan and vegetarian options",
            "Hours": "Closed until tomorrow 9:30 am - 9:00 pm"
        },
        "link": {
            "facebook": "https://www.facebook.com/pages/Caf%C3%A8-Cam%C3%A8lia/198100180227662"
        }
    },
    {
        "city": "Barcelona",
        "country": "Spain",
        "name": "Federal Café",
        "address": "C/ Parlament, 39",
        "coordinates": ["37.399875", "-2.364469"],
        "description": {
            "Internet": "Free WIFI",
            "Power Outlets": "Some inside",
            "Seating": "Big shared tables and some small tables for two",
            "Service": "Friendly",
            "Provision": "Portland-style” brunch: egg scrambles, arugula, smoked salmon, quinoa, wheat toast, etc",
            "Hours": "monday – thursday 08:00 – 23:00; friday 08:00 – 01:00; saturday 09:00 – 01:00; sunday 09:00 – 17:30"
        },
        "link": {
            "homepage":"http://www.federalcafe.es/",
            "facebook": "https://www.facebook.com/pages/federal-cafe-barcelona/134531549899409"
        }
    },
    {
        "city": "Barcelona",
        "country": "Spain",
        "name": "Babèlia Books and Coffee",
        "address": "Carrer de Villarroel, 271",
        "coordinates": ["41.39281", "2.14670"],
        "description": {
            "Internet": "Free WIFI",
            "Power Outlets": "Some inside",
            "Seating": "No big tables but very comfortable",
            "Service": "Very friendly",
            "Provision": "Part coffee shop, part secondhand book shop",
            "Hours": "9:00 am - 9:00 pm"
        },
        "link": {
            "homepage":"http://www.babeliabcn.com/",
            "facebook": "https://www.facebook.com/pages/Babelia-Barcelona/394872200528214",
            "twitter": "https://twitter.com/babeliabcn",
            "foursquare": "https://es.foursquare.com/babeliabcn"
        }
    }
]
